{"type": "FeatureCollection", "features": [{"type": "Feature", "properties": {"marker-size": "small", "marker-symbol": "city", "marker-color": "#bdffca", "name": "Bejaia", "ar": "\u0628\u062c\u0627\u064a\u0629", "code": 6001, "w": 6}, "geometry": {"type": "Point", "coordinates": [4.938545, 36.7695763]}}, {"type": "Feature", "properties": {"marker-size": "small", "marker-symbol": "city", "marker-color": "#bdffca", "name": "Amizour", "ar": "\u0627\u0645\u064a\u0632\u0648\u0631", "code": 6002, "w": 6}, "geometry": {"type": "Point", "coordinates": [4.8679708, 36.6429158]}}, {"type": "Feature", "properties": {"marker-size": "small", "marker-symbol": "city", "marker-color": "#bdffca", "name": "Ferraoun", "ar": "\u0641\u0631\u0639\u0648\u0646", "code": 6003, "w": 6}, "geometry": {"type": "Point", "coordinates": [4.8417715, 36.5654312]}}, {"type": "Feature", "properties": {"marker-size": "small", "marker-symbol": "city", "marker-color": "#bdffca", "name": "Taourirt Ighil", "ar": "\u062a\u0627\u0648\u0631\u064a\u0631\u062a \u0627\u063a\u064a\u0644", "code": 6004, "w": 6}, "geometry": {"type": "Point", "coordinates": [4.6709356, 36.7329317]}}, {"type": "Feature", "properties": {"marker-size": "small", "marker-symbol": "city", "marker-color": "#bdffca", "name": "Chelata", "ar": "\u0634\u0644\u0627\u0637\u0629", "code": 6005, "w": 6}, "geometry": {"type": "Point", "coordinates": [4.4892072, 36.5079843]}}, {"type": "Feature", "properties": {"marker-size": "small", "marker-symbol": "city", "marker-color": "#bdffca", "name": "Tamokra", "ar": "\u062a\u0627\u0645\u0642\u0631\u0629", "code": 6006, "w": 6}, "geometry": {"type": "Point", "coordinates": [4.5814411, 36.3916342]}}, {"type": "Feature", "properties": {"marker-size": "small", "marker-symbol": "city", "marker-color": "#bdffca", "name": "Timzrit", "ar": "\u062a\u064a\u0645\u0632\u0631\u064a\u062a", "code": 6007, "w": 6}, "geometry": {"type": "Point", "coordinates": [4.7342109, 36.6161452]}}, {"type": "Feature", "properties": {"marker-size": "small", "marker-symbol": "city", "marker-color": "#bdffca", "name": "Souk El Thenine", "ar": "\ufeb3\ufeee\u0642 \u0627\ufefb\ufe9b\ufee8\ufef4\ufee6", "code": 6008, "w": 6}, "geometry": {"type": "Point", "coordinates": [5.2777913, 36.6150269]}}, {"type": "Feature", "properties": {"marker-size": "small", "marker-symbol": "city", "marker-color": "#bdffca", "name": "M'cisna", "ar": "\u0645\u0633\u064a\u0633\u0646\u0629", "code": 6009, "w": 6}, "geometry": {"type": "Point", "coordinates": [4.6922142, 36.5646521]}}, {"type": "Feature", "properties": {"marker-size": "small", "marker-symbol": "city", "marker-color": "#bdffca", "name": "Thinabdher", "ar": "\u062a\u064a\u0646\u0628\u0630\u0627\u0631", "code": 6010, "w": 6}, "geometry": {"type": "Point", "coordinates": [4.6645332, 36.6333952]}}, {"type": "Feature", "properties": {"marker-size": "small", "marker-symbol": "city", "marker-color": "#bdffca", "name": "Tichi", "ar": "\u062a\u064a\u0634\u064a", "code": 6011, "w": 6}, "geometry": {"type": "Point", "coordinates": [5.0944646, 36.620329]}}, {"type": "Feature", "properties": {"marker-size": "small", "marker-symbol": "city", "marker-color": "#bdffca", "name": "Semaoun", "ar": "\u0633\u0645\u0639\u0648\u0646", "code": 6012, "w": 6}, "geometry": {"type": "Point", "coordinates": [4.8029022, 36.6163121]}}, {"type": "Feature", "properties": {"marker-size": "small", "marker-symbol": "city", "marker-color": "#bdffca", "name": "Kendira", "ar": "\u0643\u0646\u062f\u064a\u0631\u0629", "code": 6013, "w": 6}, "geometry": {"type": "Point", "coordinates": [4.948437, 36.5568449]}}, {"type": "Feature", "properties": {"marker-size": "small", "marker-symbol": "city", "marker-color": "#bdffca", "name": "Tifra", "ar": "\u062a\u064a\u0641\u0631\u0629", "code": 6014, "w": 6}, "geometry": {"type": "Point", "coordinates": [4.6505501, 36.6626768]}}, {"type": "Feature", "properties": {"marker-size": "small", "marker-symbol": "city", "marker-color": "#bdffca", "name": "Ighram", "ar": "\u0625\u063a\u0631\u0645", "code": 6015, "w": 6}, "geometry": {"type": "Point", "coordinates": [4.3924687, 36.4765457]}}, {"type": "Feature", "properties": {"marker-size": "small", "marker-symbol": "city", "marker-color": "#bdffca", "name": "Amalou", "ar": "\u0627\u0645\u0627\u0644\u0648", "code": 6016, "w": 6}, "geometry": {"type": "Point", "coordinates": [4.5674507, 36.4780606]}}, {"type": "Feature", "properties": {"marker-size": "small", "marker-symbol": "city", "marker-color": "#bdffca", "name": "Ighil Ali", "ar": "\u0625\u063a\u064a\u0644 \u0639\u0644\u0649", "code": 6017, "w": 6}, "geometry": {"type": "Point", "coordinates": [4.4345472, 36.2905404]}}, {"type": "Feature", "properties": {"marker-size": "small", "marker-symbol": "city", "marker-color": "#bdffca", "name": "Ifelain Ilmathen", "ar": "\u0627\u0641\u0646\u0627\u064a\u0646 \u0627\u0644\u0645\u0627\u062b\u0646", "code": 6018, "w": 6}, "geometry": {"type": "Point", "coordinates": [4.7479832, 36.6673126]}}, {"type": "Feature", "properties": {"marker-size": "small", "marker-symbol": "city", "marker-color": "#bdffca", "name": "Toudja", "ar": "\u062a\u0648\u062c\u0629", "code": 6019, "w": 6}, "geometry": {"type": "Point", "coordinates": [4.7209914, 36.7862498]}}, {"type": "Feature", "properties": {"marker-size": "small", "marker-symbol": "city", "marker-color": "#bdffca", "name": "Darguina", "ar": "\u062f\u0631\u0642\u064a\u0646\u0629", "code": 6020, "w": 6}, "geometry": {"type": "Point", "coordinates": [5.3057073, 36.5537403]}}, {"type": "Feature", "properties": {"marker-size": "small", "marker-symbol": "city", "marker-color": "#bdffca", "name": "Sidi Ayad", "ar": "\u0633\u064a\u062f\u064a \u0639\u064a\u0627\u062f", "code": 6021, "w": 6}, "geometry": {"type": "Point", "coordinates": [4.6956681, 36.6095992]}}, {"type": "Feature", "properties": {"marker-size": "small", "marker-symbol": "city", "marker-color": "#bdffca", "name": "Aokas", "ar": "\u0623\u0648\u0642\u0627\u0633", "code": 6022, "w": 6}, "geometry": {"type": "Point", "coordinates": [5.2038174, 36.6195851]}}, {"type": "Feature", "properties": {"marker-size": "small", "marker-symbol": "city", "marker-color": "#bdffca", "name": "Ait Djellil", "ar": "\u0622\u064a\u062b \u062c\u0644\u064a\u0644", "code": 6023, "w": 6}, "geometry": {"type": "Point", "coordinates": [4.7643966, 36.5626795]}}, {"type": "Feature", "properties": {"marker-size": "small", "marker-symbol": "city", "marker-color": "#bdffca", "name": "Adekar", "ar": "\u0622\u062f\u0643\u0627\u0631", "code": 6024, "w": 6}, "geometry": {"type": "Point", "coordinates": [4.5420287, 36.7343709]}}, {"type": "Feature", "properties": {"marker-size": "small", "marker-symbol": "city", "marker-color": "#bdffca", "name": "Akbou", "ar": "\u0623\u0642\u0628\u0648", "code": 6025, "w": 6}, "geometry": {"type": "Point", "coordinates": [4.4639658, 36.4583204]}}, {"type": "Feature", "properties": {"marker-size": "small", "marker-symbol": "city", "marker-color": "#bdffca", "name": "Seddouk", "ar": "\u0635\u062f\u0648\u0642", "code": 6026, "w": 6}, "geometry": {"type": "Point", "coordinates": [4.6409049, 36.5367869]}}, {"type": "Feature", "properties": {"marker-size": "small", "marker-symbol": "city", "marker-color": "#bdffca", "name": "Tazmalt", "ar": "\u062a\u0627\u0632\u0645\u0627\u0644\u062a", "code": 6027, "w": 6}, "geometry": {"type": "Point", "coordinates": [4.3892305, 36.3980947]}}, {"type": "Feature", "properties": {"marker-size": "small", "marker-symbol": "city", "marker-color": "#bdffca", "name": "Ait R'zine", "ar": "\u0622\u064a\u062a \u0623\u0631\u0632\u064a\u0646", "code": 6028, "w": 6}, "geometry": {"type": "Point", "coordinates": [4.4646094, 36.3866561]}}, {"type": "Feature", "properties": {"marker-size": "small", "marker-symbol": "city", "marker-color": "#bdffca", "name": "Chemini", "ar": "\u0634\u0645\u064a\u0646\u064a", "code": 6029, "w": 6}, "geometry": {"type": "Point", "coordinates": [4.5601731, 36.5928345]}}, {"type": "Feature", "properties": {"marker-size": "small", "marker-symbol": "city", "marker-color": "#bdffca", "name": "Souk Oufella", "ar": "\u0633\u0648\u0642 \u0623\u0648\u0641\u0644\u0629", "code": 6030, "w": 6}, "geometry": {"type": "Point", "coordinates": [4.5992053, 36.5880436]}}, {"type": "Feature", "properties": {"marker-size": "small", "marker-symbol": "city", "marker-color": "#bdffca", "name": "Taskriout", "ar": "\u062a\u0627\u0633\u0642\u0631\u064a\u0648\u062a", "code": 6031, "w": 6}, "geometry": {"type": "Point", "coordinates": [5.2237624, 36.5565707]}}, {"type": "Feature", "properties": {"marker-size": "small", "marker-symbol": "city", "marker-color": "#bdffca", "name": "Tibane", "ar": "\u0637\u064a\u0628\u0627\u0646", "code": 6032, "w": 6}, "geometry": {"type": "Point", "coordinates": [4.6360841, 36.6131706]}}, {"type": "Feature", "properties": {"marker-size": "small", "marker-symbol": "city", "marker-color": "#bdffca", "name": "Tala Hamza", "ar": "\u062b\u0627\u0644\u0629 \u062d\u0645\u0632\u0629", "code": 6033, "w": 6}, "geometry": {"type": "Point", "coordinates": [4.9432228, 36.6904609]}}, {"type": "Feature", "properties": {"marker-size": "small", "marker-symbol": "city", "marker-color": "#bdffca", "name": "Barbacha", "ar": "\u0628\u0631\u0628\u0627\u0634\u0629", "code": 6034, "w": 6}, "geometry": {"type": "Point", "coordinates": [4.8862205, 36.5628189]}}, {"type": "Feature", "properties": {"marker-size": "small", "marker-symbol": "city", "marker-color": "#bdffca", "name": "Beni Ksila", "ar": "\u0628\u0646\u0649 \u0643\u0633\u064a\u0644\u0629", "code": 6035, "w": 6}, "geometry": {"type": "Point", "coordinates": [4.6309708, 36.8280602]}}, {"type": "Feature", "properties": {"marker-size": "small", "marker-symbol": "city", "marker-color": "#bdffca", "name": "Ouzallaguen", "ar": "\u0623\u0648\u0632\u0644\u0627\u0642\u0646", "code": 6036, "w": 6}, "geometry": {"type": "Point", "coordinates": [4.5075207, 36.5473904]}}, {"type": "Feature", "properties": {"marker-size": "small", "marker-symbol": "city", "marker-color": "#bdffca", "name": "Bouhamza", "ar": "\u0628\u0648\u062d\u0645\u0632\u0629", "code": 6037, "w": 6}, "geometry": {"type": "Point", "coordinates": [4.5700544, 36.4393229]}}, {"type": "Feature", "properties": {"marker-size": "small", "marker-symbol": "city", "marker-color": "#bdffca", "name": "Beni Melikeche", "ar": "\u0628\u0646\u0649 \u0645\u0644\u064a\u0643\u0634", "code": 6038, "w": 6}, "geometry": {"type": "Point", "coordinates": [4.3846601, 36.4475154]}}, {"type": "Feature", "properties": {"marker-size": "small", "marker-symbol": "city", "marker-color": "#bdffca", "name": "Sidi Aich", "ar": "\u0633\u064a\u062f\u064a \u0639\u064a\u0634", "code": 6039, "w": 6}, "geometry": {"type": "Point", "coordinates": [4.6792592, 36.6223093]}}, {"type": "Feature", "properties": {"marker-size": "small", "marker-symbol": "city", "marker-color": "#bdffca", "name": "El Kseur", "ar": "\u0627\u0644\u0642\u0635\u0631", "code": 6040, "w": 6}, "geometry": {"type": "Point", "coordinates": [4.7678254, 36.7187382]}}, {"type": "Feature", "properties": {"marker-size": "small", "marker-symbol": "city", "marker-color": "#bdffca", "name": "Melbou", "ar": "\u0645\u0644\u0628\u0648", "code": 6041, "w": 6}, "geometry": {"type": "Point", "coordinates": [5.351135, 36.6217049]}}, {"type": "Feature", "properties": {"marker-size": "small", "marker-symbol": "city", "marker-color": "#bdffca", "name": "Akfadou", "ar": "\u0627\u0643\u0641\u0627\u062f\u0648", "code": 6042, "w": 6}, "geometry": {"type": "Point", "coordinates": [4.5747965, 36.6580416]}}, {"type": "Feature", "properties": {"marker-size": "small", "marker-symbol": "city", "marker-color": "#bdffca", "name": "Leflaye", "ar": "\u0644\u0641\u0644\u0627\u0649", "code": 6043, "w": 6}, "geometry": {"type": "Point", "coordinates": [4.6441959, 36.597995]}}, {"type": "Feature", "properties": {"marker-size": "small", "marker-symbol": "city", "marker-color": "#bdffca", "name": "Kherrata", "ar": "\u062e\u0631\u0627\u0637\u0629", "code": 6044, "w": 6}, "geometry": {"type": "Point", "coordinates": [5.2047107, 36.4719307]}}, {"type": "Feature", "properties": {"marker-size": "small", "marker-symbol": "city", "marker-color": "#bdffca", "name": "Draa Kaid", "ar": "\u0630\u0631\u0627\u0639 \u0627\u0644\u0642\u0627\u064a\u062f", "code": 6045, "w": 6}, "geometry": {"type": "Point", "coordinates": [5.168301, 36.4405974]}}, {"type": "Feature", "properties": {"marker-size": "small", "marker-symbol": "city", "marker-color": "#bdffca", "name": "Tamridjet", "ar": "\u062a\u0627\u0645\u0631\u064a\u062c\u062a", "code": 6046, "w": 6}, "geometry": {"type": "Point", "coordinates": [5.3775099, 36.5729424]}}, {"type": "Feature", "properties": {"marker-size": "small", "marker-symbol": "city", "marker-color": "#bdffca", "name": "Ait Smail", "ar": "\u0622\u064a\u062a \u0633\u0645\u0627\u0639\u064a\u0644", "code": 6047, "w": 6}, "geometry": {"type": "Point", "coordinates": [5.1892262, 36.554314]}}, {"type": "Feature", "properties": {"marker-size": "small", "marker-symbol": "city", "marker-color": "#bdffca", "name": "Boukhelifa", "ar": "\u0628\u0648\u062e\u0644\u064a\u0641\u0629", "code": 6048, "w": 6}, "geometry": {"type": "Point", "coordinates": [5.0058926, 36.6367939]}}, {"type": "Feature", "properties": {"marker-size": "small", "marker-symbol": "city", "marker-color": "#bdffca", "name": "Tizi N'berber", "ar": "\u062a\u064a\u0632\u0649 \u0646\u0628\u0631\u0628\u0631", "code": 6049, "w": 6}, "geometry": {"type": "Point", "coordinates": [5.1307333, 36.5899196]}}, {"type": "Feature", "properties": {"marker-size": "small", "marker-symbol": "city", "marker-color": "#bdffca", "name": "Beni Maouch", "ar": "\u0628\u0646\u064a \u0645\u0639\u0648\u0634", "code": 6050, "w": 6}, "geometry": {"type": "Point", "coordinates": [4.72105, 36.4881459]}}, {"type": "Feature", "properties": {"marker-size": "small", "marker-symbol": "city", "marker-color": "#bdffca", "name": "Oued Ghir", "ar": "\u0648\u0627\u062f\u064a \u063a\u064a\u0631", "code": 6051, "w": 6}, "geometry": {"type": "Point", "coordinates": [4.9085928, 36.7149207]}}, {"type": "Feature", "properties": {"marker-size": "small", "marker-symbol": "city", "marker-color": "#bdffca", "name": "Boudjellil", "ar": "\u0628\u0648\u062c\u0644\u064a\u0644", "code": 6052, "w": 6}, "geometry": {"type": "Point", "coordinates": [4.3477724, 36.3223972]}}, {"type": "Feature", "properties": {"marker-size": "medium", "marker-symbol": "star", "marker-color": "#bdffca", "name": "B\u00e9ja\u00efa", "ar": "\u0628\u062c\u0627\u064a\u0629", "code": 6, "w": 6}, "geometry": {"type": "Point", "coordinates": [5.0085855, 36.7695969]}}]}